PointName,Lng,Lat,Score
翠福园小区2,116.6493346,39.94261895,0
安平道口,116.8809528,39.7124686,6.56
安顺北里,116.6441424,39.94634593,2.67
八各庄村,116.7644617,39.87998132,1.56
八里桥北站,116.6126191,39.91262577,3.22
八里桥市场1,116.6366952,39.91430892,18.22
八里桥市场2,116.6365926,39.91359699,29.89
巴克寓所小区,116.6334044,39.88455164,18.78
靶场西路,116.6606448,39.93574612,1
百合湾小区1,116.6836776,39.91323847,10.44
百合湾小区2,116.6835749,39.91328553,11
百合湾小区3,116.6835669,39.91332558,11
百合湾小区4,116.683538,39.91331862,11
百合湾小区5,116.6836789,39.91325936,10.44
佰富苑1,116.7086567,39.9558616,4.33
佰富苑2,116.7086625,39.95592208,4.89
柏福村,116.6650702,39.70287197,2.67
柏庄村,116.8196498,39.72568179,1.56
北大化村,116.687816,39.79155941,8.22
北堤寺村,116.7541643,39.71889755,2.67
北堤寺村西口(临时站),116.7485398,39.71965038,2.11
北关桥,116.6506574,39.92133313,2.11
北火垡村,116.6345738,39.80776599,2.11
北京财贸学院1,116.6414455,39.92131885,2.67
北京财贸学院2,116.6414906,39.92130437,2.11
北京财贸职业学院,116.6415803,39.92129829,2.11
北京财政学院1,116.6416366,39.9212867,2.11
北京财政学院2,116.6414208,39.92139937,3.22
北京电子技师学校,116.6760169,39.98518728,14.89
北京理工大学附中通州校区,116.6912301,39.99113274,3.78
北京物资学院,116.6316563,39.92620783,5.44
北京物资学院南站(临时站),116.6346725,39.92075066,24.33
北京物资学院南站1,116.6336929,39.92130009,47.11
北京物资学院南站2,116.6332914,39.91930346,6
北刘村,116.7313103,39.90692788,2.67
北马庄1,116.6503779,39.94706762,2.11
北马庄2,116.6503986,39.94708081,2.11
北马庄村南,116.6516554,39.94174819,3.22
北马庄南1,116.6516476,39.94178746,3.22
北马庄南2,116.6516587,39.94175005,3.22
北马庄南3,116.6516308,39.941819,2.11
北门口村桥北,116.5426466,39.76694354,3.22
北神树东口,116.5511831,39.81619189,2.11
北寺村北口,116.7345482,39.97119881,4.33
北寺市场,116.7367483,39.96667149,9.33
北探小区1,116.6293882,39.88633336,3.22
北探小区2,116.6293732,39.8863243,3.22
北探小区3,116.6293733,39.88624432,4.33
北塘艺术区南门1,116.7127636,39.96486117,14.33
北塘艺术区南门2,116.7128213,39.96547814,9.33
北小园1,116.6686574,39.89916477,11.56
北小园2,116.6688207,39.89917381,13.22
北小园3,116.6687507,39.89920252,11.56
北许场村1,116.7068467,39.86388274,1.56
北许场村2,116.706718,39.86390481,1.56
北许场村3,116.7066627,39.86395972,1.56
北许场村4,116.7067341,39.8639138,1.56
北许场村5,116.706743,39.86389372,1.56
北许场村6,116.70671,39.86390875,1.56
北许场村7,116.7066612,39.86394283,1.56
北许场村8,116.7066572,39.86392283,1.56
北许场新村1,116.715555,39.85457364,22.67
北许场新村2,116.71554,39.85455765,23.22
贝思达临时站,116.7126806,39.9767635,2.11
滨河中路1,116.6936679,39.89362948,1.56
滨河中路2,116.69278,39.89417941,2.11
卜落垡村,116.7944468,39.8670596,3.78
采薇雅苑,116.8416208,39.63963656,1
苍上,116.7297374,39.7670781,2.67
苍上村,116.7297514,39.76703014,2.67
曹刘庄东,116.8755139,39.79441331,2.11
曹坨村,116.797924,39.85384447,2.11
曹园村1,116.6514619,39.86150943,1.56
曹园村2,116.6514614,39.86162523,2.11
曹园村3,116.6514643,39.86157401,2.11
曹园村西,116.6465241,39.85359411,1
曹园逸家小区1,116.648929,39.85891378,2.11
曹园逸家小区2,116.6489097,39.86029467,1
曹庄,116.89176,39.74132062,4.33
草厂,116.7592383,39.74314296,1.56
草厂八大处,116.7589953,39.74918977,6
草厂村碑,116.759274,39.74515376,5.44
草厂西口,116.7526274,39.74925037,3.22
常营民族家园西站,116.5752283,39.92678109,18.22
常营中路西口,116.5728743,39.92651775,17.67
陈各庄,116.6182815,39.75635668,3.78
陈桁村,116.835186,39.77289225,2.11
陈列馆路,116.6670929,39.94376143,2.67
陈列馆路口,116.6673495,39.93622762,7.11
成大广场,116.6803304,39.90450807,12.11
仇庄,116.7204742,39.64705953,3.22
次渠西口,116.5633285,39.80250269,42.67
次渠银行,116.5653397,39.80165338,31.56
次渠镇,116.5833163,39.80180538,1.56
翠福园西口,116.6443673,39.94339393,1.56
翠福园小区1,116.6503791,39.94703043,2.11
翠福园小区3,116.6493387,39.942611,7.67
翠屏北里1,116.6375523,39.88995595,28.78
翠屏北里2,116.6375464,39.8901072,29.33
翠屏北里3,116.6375465,39.89002099,29.33
翠屏北里北,116.6417302,39.89164707,16
翠屏南里1,116.6439486,39.88191906,19.89
翠屏南里2,116.6446116,39.88254957,26.56
翠屏西路,116.6367874,39.88300857,5.44
翠屏西路北口1,116.6376565,39.89252368,19.33
翠屏西路北口2,116.6376276,39.89253172,19.89
翠屏西路北口3,116.6376693,39.89257964,20.44
翠屏西路北口4,116.6376745,39.89262219,20.44
翠屏小区东站,116.6455599,39.88752948,16
大北关1,116.6916343,39.77749686,3.22
大北关2,116.6916372,39.77744482,3.22
大地村,116.62341,39.80265785,1.56
大东各庄村1,116.8129711,39.84448191,6
大东各庄村2,116.8135552,39.8441044,4.33
大豆各庄村,116.7862543,39.853749,3.78
大豆各庄村东口,116.791955,39.85378211,5.44
大杜社村1,116.6469905,39.7502318,22.11
大杜社村2,116.6459563,39.74962704,16
大杜社村口,116.6471702,39.74908788,26
大杜社村南口(临时站),116.6474387,39.74661188,7.67
大杜社村中学,116.6468298,39.75172877,4.89
大方居,116.6245721,39.87282677,8.22
大甘棠村,116.7631382,39.85360026,1.56
大甘棠村西口,116.752496,39.85365799,1
大稿北站1,116.6293144,39.87499511,17.11
大稿北站2,116.6293214,39.87497019,17.11
大稿北站3,116.6292047,39.87510615,16
大稿村南口,116.6285097,39.86724203,3.22
大稿南站1,116.6293147,39.87356227,4.89
大稿南站2,116.6292219,39.87373726,4.89
大稿新村1,116.6325048,39.87248691,13.78
大稿新村2,116.6315432,39.87284136,13.22
大稿新村3,116.6293116,39.87355722,4.89
大稿新村4,116.6336887,39.87278633,8.78
大灰店村,116.8999464,39.80481826,6
大柳树村西口,116.8481711,39.72830069,2.67
大马庄,116.6557838,39.86499629,11.56
大马庄1,116.6558247,39.86512029,11
大马庄2,116.6562174,39.86592876,14.33
大马庄3,116.6558175,39.86511385,11
大马庄南站1,116.6554332,39.86347172,26
大马庄南站2,116.6553833,39.86368274,26
大松垡村,116.6520908,39.72161738,3.78
大松垡村北口,116.6513746,39.72370468,1
大松垡村东口,116.6533097,39.71800972,3.78
大松垡村南口,116.6535083,39.71046274,3.78
大香仪村,116.796403,39.74454584,2.11
大辛庄,116.7183158,39.8245566,12.11
大兴庄后街,116.7268169,39.95570544,7.67
大兴庄南口,116.7319381,39.94751055,4.89
大兴庄中街,116.728346,39.95337284,3.78
大运河森林公园南门,116.7470605,39.85364188,1
德芳潭陵园(临时站),116.7658888,39.73365244,1.56
德仁务村北口,116.7746975,39.67565589,4.89
地铁北运河西站1,116.6815205,39.90052127,33.22
地铁北运河西站2,116.6853679,39.90029086,11.56
地铁北运河西站南,116.6852162,39.90070697,13.22
地铁次渠站,116.5904821,39.80188344,7.67
地铁果园站1,116.6395292,39.89326347,20.44
地铁果园站2,116.6395362,39.8932605,21
地铁经海路站,116.5579198,39.78282466,8.22
地铁九棵树站1,116.6510191,39.88988288,16
地铁九棵树站10,116.6510829,39.88984782,16.56
地铁九棵树站11,116.6513063,39.88980563,17.11
地铁九棵树站12,116.6510959,39.88985874,16
地铁九棵树站13,116.6512404,39.88981565,16
地铁九棵树站14,116.6511667,39.88983564,15.44
地铁九棵树站15,116.6511398,39.88984673,15.44
地铁九棵树站2,116.6512504,39.88981564,16
地铁九棵树站3,116.6512196,39.88982971,15.44
地铁九棵树站4,116.6513923,39.88977303,18.22
地铁九棵树站5,116.6511368,39.88984272,15.44
地铁九棵树站6,116.6511368,39.88983566,15.44
地铁九棵树站7,116.6511407,39.88983767,15.44
地铁九棵树站8,116.6519502,39.88987806,9.89
地铁九棵树站9,116.6511497,39.88984672,15.44
地铁梨园站1,116.6629979,39.88275919,33.78
地铁梨园站10,116.6627089,39.88297149,33.78
地铁梨园站11,116.6628504,39.8828924,36
地铁梨园站12,116.6629223,39.88281628,36.56
地铁梨园站13,116.6627158,39.88299349,33.78
地铁梨园站14,116.6629342,39.88277932,36.56
地铁梨园站2,116.6628135,39.88288939,36.56
地铁梨园站3,116.6627867,39.88293142,36
地铁梨园站4,116.6627996,39.8829011,36
地铁梨园站5,116.6629881,39.88276723,34.33
地铁梨园站6,116.6629322,39.88279731,36.56
地铁梨园站7,116.6627258,39.88298946,33.78
地铁梨园站8,116.6628135,39.88291139,36
地铁梨园站9,116.6631316,39.88280009,32.11
地铁临河里站1,116.6724884,39.8741657,13.22
地铁临河里站10,116.6725961,39.87406442,11
地铁临河里站11,116.67264,39.87404645,11.56
地铁临河里站12,116.6725951,39.8740775,11
地铁临河里站13,116.6725843,39.87406,11
地铁临河里站14,116.6725811,39.87405751,11
地铁临河里站15,116.6726291,39.87403345,11
地铁临河里站2,116.6725852,39.8740845,11.56
地铁临河里站3,116.6725483,39.87411554,11.56
地铁临河里站4,116.6726609,39.87401037,11.56
地铁临河里站5,116.6725493,39.87412848,11.56
地铁临河里站6,116.672632,39.87404445,11.56
地铁临河里站7,116.6725442,39.87411354,11.56
地铁临河里站8,116.6727236,39.87486728,13.78
地铁临河里站9,116.6725592,39.87408452,11.56
地铁潞城站1,116.7392558,39.90232075,7.67
地铁潞城站2,116.7407355,39.90198159,7.67
地铁通州北关站1,116.6552389,39.91831923,22.67
地铁通州北关站2,116.6554465,39.91703713,8.78
地铁通州北关站3,116.6554014,39.91870908,27.67
地铁通州北苑站1,116.6308256,39.90315165,42.11
地铁通州北苑站2,116.6307986,39.90321364,41.56
地铁通州北苑站3,116.6309433,39.90301746,43.22
地铁通州北苑站4,116.6311365,39.90425272,27.11
地铁通州北苑站5,116.6309384,39.90301297,43.22
地铁通州北苑站6,116.6308626,39.90314354,42.11
地铁通州北苑站7,116.6311615,39.90421044,30.44
地铁通州北苑站8,116.6312224,39.9041124,37.11
地铁同济南路站1,116.5319462,39.77154323,12.67
地铁同济南路站2,116.5315954,39.77137289,12.67
地铁同济南路站3,116.5319372,39.77152913,13.22
地铁土桥站1,116.6829386,39.87019096,8.78
地铁土桥站10,116.6827422,39.87023418,8.78
地铁土桥站11,116.6848779,39.86967432,9.33
地铁土桥站12,116.6826565,39.87027323,8.78
地铁土桥站13,116.6827093,39.87028321,8.78
地铁土桥站14,116.6848091,39.86969238,9.33
地铁土桥站2,116.6826964,39.87026122,8.78
地铁土桥站3,116.6827223,39.87024818,8.78
地铁土桥站4,116.6826247,39.87027346,8.78
地铁土桥站5,116.6828858,39.87022208,8.78
地铁土桥站6,116.6827363,39.87024319,8.78
地铁土桥站7,116.6826625,39.87027121,8.78
地铁土桥站8,116.6827273,39.8702452,8.78
地铁土桥站9,116.6804531,39.87098414,19.33
地铁万盛东站1,116.6499622,39.86257965,6.56
地铁万盛东站2,116.650002,39.86292854,6.56
邓庄村,116.8118168,39.70669447,2.67
翟各庄1,116.7525556,39.77132172,1.56
翟各庄2,116.7563444,39.77226586,1.56
翟各庄村西口,116.7564006,39.77218096,1.56
翟里村,116.742625,39.99763501,7.67
靛庄村,116.7633981,39.80228249,1.56
丁各庄1,116.7286949,39.92887383,11
丁各庄2,116.728663,39.9289207,11
丁各庄3,116.7286809,39.92884983,11
丁各庄4,116.7286899,39.92884015,11
丁各庄5,116.7286929,39.9288528,11
定海园北,116.5579773,39.80072274,7.67
东堡村,116.7586184,39.89495631,2.67
东定安村,116.835253,39.72619817,3.22
东关大桥,116.6796073,39.91189854,37.11
东关大桥1,116.6795814,39.91188327,37.11
东关大桥2,116.6786104,39.91179724,18.22
东关大桥3,116.678731,39.91179809,22.11
东关大桥4,116.6786314,39.91180123,19.33
东关大桥南,116.6739846,39.90784887,2.11
东河村南口,116.807489,39.67408836,2.11
东黄垡村,116.8091569,39.73454708,1.56
东刘村,116.7978031,39.86336046,2.11
东鲁大队,116.7516205,39.75051116,2.67
东鲁大桥,116.7523015,39.76077965,1
东鲁中街,116.7516028,39.75429369,3.78
东马各庄,116.6972058,39.72943061,1.56
东马各庄村,116.6972198,39.72927374,1.56
东马各庄桥,116.6961148,39.73524976,1.56
东上园1,116.6782983,39.90017137,13.22
东上园2,116.6782068,39.90014835,12.67
东寺庄村1,116.8494744,39.74205288,6.56
东寺庄村2,116.8495176,39.74203459,6
东田阳,116.6289946,39.74400779,3.22
东田阳东口,116.6349936,39.74633926,1.56
东田阳西口,116.6188884,39.74152029,3.78
东夏园路口北1,116.7297861,39.9029777,2.11
东夏园路口北2,116.72984,39.90308058,1.56
东夏园路口东,116.7314579,39.9022162,2.11
东夏园路口南,116.7291125,39.90112661,2.67
东旭新村,116.6198246,39.87768431,1.56
东永何屯1,116.7241746,39.77617018,1.56
东永何屯2,116.7241806,39.77607018,1.56
董村,116.5462789,39.82808055,4.33
杜柳棵村1,116.8356317,39.81308227,7.11
杜柳棵村2,116.8358811,39.81321383,5.44
杜柳棵村南,116.8350941,39.81240102,7.67
垛子村,116.6180763,39.80256154,2.67
二六三医院(北行),116.6368133,39.91180903,39.89
二六三医院(东行),116.6405808,39.91305952,9.89
二六三医院1,116.6368083,39.91179202,40.44
二六三医院2,116.6366637,39.91187801,41.56
范庄,116.6525894,39.93864039,3.22
冯各庄村,116.8349011,39.78757106,2.11
驸马庄,116.5800521,39.75889752,15.44
复兴里1,116.6383515,39.90214459,8.22
复兴里2,116.638562,39.90144389,4.33
复兴里3,116.6383469,39.90210357,7.67
富各庄南口,116.7371534,39.68055319,1.56
富豪北口,116.6619277,39.96078009,1.56
富豪村,116.6536866,39.96191372,14.33
富豪村南,116.654173,39.95852688,3.22
富豪工业园,116.652807,39.96818561,2.11
富豪南口,116.6567811,39.95578643,2.11
富豪小学,116.6533159,39.96458689,13.22
富河园小区1,116.6502295,39.92331285,16
富河园小区2,116.6502454,39.92336864,16.56
富河园小区3,116.6502474,39.92330931,16
富河园小区4,116.6502374,39.92331243,16
富力尚悦居,116.5810005,39.76980176,6.56
富力小区,116.6841054,39.90184282,7.67
甘棠桥西,116.8077028,39.85395944,7.67
甘棠乡政府(侉子店),116.8093744,39.85480435,8.78
岗山路口,116.6079167,40.03339304,1.56
港北,116.7496163,40.00920721,1.56
高村,116.8766849,39.63811617,1
高楼金村1,116.6815476,39.86147693,1.56
高楼金村2,116.6815624,39.86148585,2.11
高楼金村3,116.6815435,39.86148185,1.56
高营村1,116.6452994,39.77468329,2.11
高营村2,116.6454389,39.77498112,2.11
高营村3,116.645419,39.77475119,2.11
高营村北口1,116.6454134,39.7788538,1.56
高营村北口2,116.6454642,39.7788487,1.56
高营村南口,116.6453387,39.77243556,1
格拉斯小镇,116.648433,39.99840851,1.56
格瑞雅居小区1,116.6375171,39.88605417,16
格瑞雅居小区2,116.6375017,39.88602194,16.56
格瑞雅居小区3,116.6375115,39.88608061,15.44
葛渠村,116.6455489,40.01036688,3.78
葛渠村市场,116.6428027,40.01544029,1
葛渠村西,116.6359384,40.01756806,1.56
耿庄桥北1,116.6802188,39.92588717,13.78
耿庄桥北2,116.6800553,39.92624595,14.33
耿庄桥北3,116.6800382,39.92607018,14.89
耿庄桥北4,116.6800703,39.92620797,15.44
耿庄桥北5,116.6800613,39.926038,14.89
耿庄桥北6,116.6800723,39.92597492,14.89
耿庄桥南7,116.6828487,39.91586209,4.89
耿庄桥南8,116.6828765,39.91582997,4.89
供给店村,116.7993333,39.81312811,3.22
古城西桥公交场站,116.7038505,39.91666363,1.56
故城东路北口,116.6702436,39.90698253,10.44
瓜厂,116.7050889,39.83698964,3.22
瓜厂南口,116.7090858,39.8342241,2.11
关辛庄,116.7492762,39.99956038,7.11
管头村,116.6119187,40.02000272,3.78
管头村北口,116.6086723,40.0251129,2.11
管头工业区,116.6083374,40.02920592,2.11
管头工业区南,116.6084601,40.02677868,2.11
管庄路口北,116.5853245,39.91345674,42.67
国风美仑小区,116.5815229,39.76659154,9.33
果村,116.6969037,39.7046505,2.11
果园北1,116.6505448,39.89377394,24.89
果园北2,116.6505747,39.8939439,20.44
果园东1,116.653273,39.89077276,2.11
果园东2,116.6534744,39.89065959,2.11
果园环岛北1,116.6505222,39.89381353,23.78
果园环岛北2,116.6506157,39.89364595,26.56
果园环岛北3,116.6505349,39.89379,24.33
果园环岛南1,116.6492955,39.88941337,21.56
果园环岛南2,116.6492456,39.88912538,28.22
果园环岛西1,116.6471586,39.89104102,8.78
果园环岛西2,116.6472014,39.89102196,9.33
果园环岛西3,116.6472172,39.89102983,8.78
果园环岛西4,116.6470349,39.8910771,8.22
果园环岛西5,116.6471726,39.89105201,8.78
果园南,116.6492267,39.88908339,28.78
合景中心,116.6762906,39.90665371,1.56
合生世界村,116.5395717,39.73705794,21
和合站村,116.8650788,39.77579555,1
侯东仪村,116.8969085,39.81882732,3.22
侯各庄村路口,116.9076631,39.81828459,2.11
后北营1,116.7307803,39.91093948,1.56
后北营2,116.7307883,39.91089736,1.56
后地村,116.7922945,39.75071791,1.56
后地村北口,116.7894696,39.75915579,1.56
后伏村,116.6732411,39.68594875,2.11
后尖平村1,116.8670755,39.73005584,2.11
后尖平村2,116.8670711,39.73007719,2.11
后南仓1,116.6450508,39.90045254,13.78
后南仓2,116.645084,39.900431,13.22
后南仓3,116.6451358,39.90042501,11
后南关村,116.7074445,39.7660194,2.11
后夏公庄1,116.7257193,39.94093853,39.89
后夏公庄2,116.7257153,39.94101354,37.67
后夏公庄3,116.7257073,39.94103753,37.11
后夏公庄4,116.7256844,39.94108503,37.11
后夏公庄5,116.7257103,39.94098955,38.22
后堰上村,116.6268784,39.7727788,1.56
胡各庄1,116.7284331,39.91399067,2.67
胡各庄2,116.7284241,39.91409054,2.11
胡各庄3,116.728468,39.91398065,2.67
胡各庄4,116.7284548,39.91399434,2.67
胡各庄西1,116.7220654,39.91459593,2.11
胡各庄西2,116.7218588,39.91461294,2.67
胡各庄西3,116.7220288,39.91461523,2.11
胡各庄乡政府,116.7218867,39.91473993,2.11
胡各庄新村1,116.7288323,39.90951304,2.67
胡各庄新村2,116.7286716,39.90948402,2.67
胡各庄新村西1,116.7248996,39.90922942,3.22
胡各庄新村西2,116.7250433,39.90919941,3.22
胡家垡村,116.6110857,39.83321619,2.11
花石匠小区,116.6929279,39.87194556,31.56
花石匠小区东,116.6958198,39.8719045,3.78
化六,116.7593109,39.7395655,1
环湖小区北口1,116.7320806,39.84475347,7.67
环湖小区北口2,116.7321315,39.84473749,7.67
环湖小区南门1,116.7318166,39.84096965,3.78
环湖小区南门2,116.7316668,39.84086866,3.78
环湖小区正门1,116.7324485,39.84261773,22.11
环湖小区正门2,116.7324385,39.84263372,22.67
皇木厂1,116.6499123,39.91837594,6
皇木厂2,116.6500667,39.91859284,6
皇木厂3,116.6500648,39.91869485,6
皇木厂4,116.6499171,39.91839524,6
皇木厂5,116.6500578,39.91868179,6
黄厂铺1,116.7749129,39.7292989,4.33
黄厂铺2,116.7849135,39.72848591,1.56
黄厂铺北口1,116.7739947,39.73344467,1.56
黄厂铺北口2,116.7848144,39.73782536,3.22
黄东仪村,116.903784,39.81834514,3.78
汇鸿家园,116.5798889,39.9183245,12.11
漷城西三路路口,116.7672594,39.77372179,4.33
漷城西四路,116.7719767,39.76082058,2.11
漷城西四路路口,116.7719016,39.76684105,1.56
漷城西一路路口,116.7611703,39.76711058,1
漷大路北口,116.7846176,39.77408296,11.56
漷县村,116.7758889,39.77531921,9.33
漷县村南口,116.776891,39.76708177,2.67
漷县村十字街,116.7754645,39.77522627,11
漷县村西,116.7671184,39.77362351,3.78
漷县南口,116.7766391,39.76705178,2.67
漷县南口东,116.7804236,39.76762287,3.78
漷县三街,116.7863926,39.76845121,2.67
漷县三街路口,116.771924,39.7654992,3.22
漷县市场,116.7855691,39.77751443,21
漷县西四路,116.7719518,39.76086871,1.56
漷县镇政府1,116.7882395,39.78043972,14.89
漷县镇政府2,116.7882465,39.78043094,14.89
漷县镇政府3,116.7882786,39.78039081,14.33
漷县镇政府4,116.7882615,39.78041981,14.89
漷县镇政府5,116.7882267,39.78045959,14.89
漷县中学1,116.7844951,39.77445633,6.56
漷县中学2,116.7856748,39.77488267,3.22
漷兴三街,116.7857483,39.76850769,1.56
霍屯,116.6979777,39.91675608,4.89
霍屯村1,116.697892,39.91677516,4.89
霍屯村2,116.6972477,39.9167926,8.22
霍屯村3,116.6970851,39.91677272,9.89
霍屯村4,116.6979414,39.91678439,4.89
加州小镇,116.6749302,39.86618776,21.56
加州小镇小区1,116.6749081,39.86628274,22.11
加州小镇小区2,116.6749242,39.86628273,22.11
嘉创二路,116.5511996,39.81313826,2.67
嘉创二路路口南,116.5511932,39.80934755,5.44
嘉创三路路口南,116.5576006,39.81902608,3.22
贾各庄,116.7464405,39.8393854,4.33
贾各庄西口,116.7427333,39.83877658,2.67
尖垡村1,116.651924,39.8129,3.22
尖垡村2,116.651918,39.81293097,3.22
坚村,116.8148282,39.69206501,2.67
蒋辛庄村,116.632145,39.81419471,9.89
蒋辛庄村北口,116.6318398,39.81977831,1.56
焦王庄,116.6676188,39.92925378,32.11
焦王庄北口1,116.6674235,39.93419063,42.11
焦王庄北口2,116.6674156,39.93416568,41.56
焦王庄南口,116.6676079,39.92937577,25.44
结研所1,116.6466133,39.92136864,17.67
结研所2,116.6466207,39.92136933,17.11
结研所3,116.6466057,39.9213665,17.67
结研所4,116.6465917,39.92136748,17.67
结研所5,116.645134,39.9212837,3.78
金地格林小区,116.646153,39.94932111,2.67
金各庄村,116.8349223,39.79231763,2.67
金桥北门1,116.5396658,39.7497617,8.78
金桥北门2,116.5396655,39.74974798,8.78
金桥小区,116.5396548,39.74967515,8.78
金桥小学1,116.5356987,39.74208178,20.44
金桥小学2,116.5356912,39.7421619,22.11
京东运乔建材城1,116.6905182,39.89156707,10.44
京东运乔建材城2,116.6904773,39.89170714,11
京东运乔建材城3,116.6905681,39.89159706,9.89
京东运乔建材城4,116.6905371,39.89173705,11
经海产业园,116.5572869,39.77802952,8.22
经海三路南口,116.5553201,39.77430128,4.33
晶彩小区,116.5460121,39.73990202,21.56
景盛南二街,116.551235,39.73187053,11
靓景明居小区1,116.6302401,39.88105535,7.11
靓景明居小区2,116.6319442,39.88453838,13.78
敬园小区,116.5725231,39.80168836,58.78
九棵树(京津公路),116.6569471,39.88777256,15.44
九棵树1,116.6569392,39.88774261,15.44
九棵树10,116.6569447,39.88775215,15.44
九棵树11,116.656993,39.88770761,16
九棵树12,116.6570748,39.88764955,16.56
九棵树13,116.6569392,39.88772759,14.89
九棵树14,116.6570379,39.8876756,17.11
九棵树15,116.6569881,39.8877036,16
九棵树16,116.6570469,39.8876756,16.56
九棵树17,116.6552492,39.88921012,11
九棵树2,116.656966,39.88773061,14.89
九棵树3,116.6553599,39.889118,11.56
九棵树4,116.656997,39.88770761,16
九棵树5,116.6570509,39.88766542,16
九棵树6,116.6569492,39.88772668,14.89
九棵树7,116.6569492,39.88774765,14.89
九棵树8,116.6568894,39.88777469,17.67
九棵树9,116.6551606,39.88879222,11
巨星桥北1,116.6908743,39.86324281,3.22
巨星桥北2,116.6908255,39.86331185,4.33
巨星桥北3,116.6908344,39.86347284,4.89
巨星桥北4,116.6908354,39.86327385,4.33
巨星桥北5,116.6907985,39.86336988,4.33
聚福园小区,116.6969196,39.68605341,7.67
军屯村,116.8236005,39.72578138,1.56
军屯村西口,116.8169018,39.72797377,1.56
军庄村路口,116.8523293,39.71112162,1.56
科创十六街,116.5660879,39.77268374,1.56
科创十三街,116.5617515,39.77889056,3.78
科创十四街西站,116.5573092,39.77609267,4.33
科创十五街,116.5639525,39.77644712,2.67
科技大学管庄校区,116.5841827,39.9188498,43.78
科印小区1,116.6338066,39.89971143,8.22
科印小区2,116.6337547,39.89986047,9.89
科印小区3,116.6337795,39.89979349,9.33
科印小区4,116.6333197,39.90072163,15.44
科印小区5,116.6333237,39.90072682,15.44
科印小区6,116.6337746,39.89982545,9.33
科印小区7,116.6332929,39.90077941,15.44
孔庄村,116.8151007,39.69797378,1.56
喇嘛庄路口,116.7279885,39.95783697,12.11
莱茵湾小区,116.6270011,40.01778001,1.56
蓝调沙龙小区1,116.6475512,39.88697387,23.78
蓝调沙龙小区2,116.6474684,39.88667904,23.22
郎府乡政府,116.8349801,39.79918404,2.11
老槐庄村,116.8188426,39.70718852,2.11
老槐庄村东口,116.8262039,39.70781634,2.11
老槐庄村桥,116.8315668,39.70862009,1.56
梨园北街1,116.6789139,39.88779546,6.56
梨园北街2,116.6790345,39.88785838,6
梨园北街3,116.6779297,39.88753595,9.33
梨园北街4,116.6778781,39.88750244,9.33
梨园北街5,116.681136,39.88767841,20.44
梨园东里,116.6743783,39.88621291,8.22
梨园东里北区,116.6743564,39.88618795,8.22
梨园东里南区,116.677332,39.88080855,15.44
梨园南街,116.6934367,39.88587587,3.78
梨园南街东口,116.7002703,39.88798435,4.89
梨园南街西口,116.6716632,39.87875413,9.33
李辛庄村,116.8494678,39.72256111,3.22
李辛庄村南口,116.8510876,39.71851308,1
李庄佳苑,116.6786801,39.94489413,6.56
里二泗村1,116.7737669,39.82953208,2.67
里二泗村2,116.7736947,39.82966921,2.11
里二泗村3,116.7736858,39.82967189,2.11
里二泗村4,116.7745546,39.82836257,2.11
里二泗村5,116.7745636,39.82832755,2.11
里二泗村北口1,116.771615,39.83286104,2.11
里二泗村北口2,116.7716079,39.83286414,2.11
里二泗村北口3,116.771633,39.83284715,2.11
里二泗村北口4,116.771583,39.83288695,2.11
里二泗村北口5,116.771579,39.83291693,2.11
里二泗西口,116.7504782,39.82988489,2.67
里二泗幼儿园,116.7505485,39.83326468,1.56
里老村,116.875669,39.66501548,1
荔景园南口,116.696992,39.90843725,4.33
荔景园小区,116.6969042,39.90840432,5.44
凉水河桥南1,116.5401133,39.75909184,29.89
凉水河桥南2,116.5401033,39.75912113,28.22
梁各庄村1,116.7383631,39.85610935,3.78
梁各庄村2,116.7383212,39.8561114,3.78
梁各庄村3,116.7383397,39.85611757,3.78
梁各庄村4,116.7383182,39.85612739,3.78
梁各庄村5,116.7382682,39.85612535,3.78
梁各庄村6,116.7382682,39.85614328,3.78
梁各庄村7,116.736543,39.85667442,1
林屯村,116.884412,39.81208791,1.56
临沟屯,116.7287058,39.62546071,1.56
临河里路,116.6815248,39.87649681,8.22
临河里路北口,116.6808522,39.88053414,29.33
临河里路南口,116.6847678,39.87166224,4.89
临时站,116.7315597,39.84774002,1
凌庄1,116.8460577,39.74497902,4.33
凌庄2,116.8460453,39.744967,4.33
刘庄,116.6672045,39.9387605,4.33
刘庄北口,116.6671994,39.93885861,4.33
六合村,116.7007958,39.9360676,1.56
六合桥西,116.6985453,39.93511612,5.44
六合新村,116.7174822,39.93530594,2.67
龙鼎家园,116.6423741,39.87694657,38.22
龙庄村,116.8430928,39.71038035,5.44
龙庄客运站,116.8381162,39.71010619,2.67
陆航学院1,116.6518823,39.83501916,1.56
陆航学院2,116.6518782,39.83500511,1.56
陆航学院3,116.6518782,39.8350103,1.56
陆辛庄村,116.6766078,39.79303436,7.11
陆辛庄村东口,116.6822187,39.79164729,3.22
陆辛庄学校,116.6700077,39.79232385,2.11
潞关1,116.6948898,39.79166865,9.33
潞关2,116.6948827,39.79166887,9.33
潞关村1,116.6946911,39.79208002,12.67
潞关村2,116.6947511,39.78548868,3.22
潞关村3,116.6948996,39.79175692,10.44
潞河实验小学,116.6267835,39.88099063,3.78
潞河医院1,116.651196,39.89895909,27.11
潞河医院2,116.6511371,39.89891763,25.44
潞河医院3,116.6511341,39.89890318,25.44
潞河医院4,116.6511302,39.89889917,25.44
潞河医院5,116.6511002,39.89885416,25.44
潞河医院6,116.6513205,39.89902097,29.89
潞河医院路口东1,116.6525513,39.89992096,15.44
潞河医院路口东2,116.6525586,39.89992075,15.44
潞河医院路口东3,116.6527171,39.89984763,13.78
潞河医院路口西1,116.6501666,39.90015735,4.33
潞河医院路口西2,116.6501469,39.90014387,3.78
潞阳桥西路,116.7026426,39.88323142,2.11
潞邑西路1,116.6852399,39.93462076,8.78
潞邑西路2,116.6847908,39.93650871,14.89
潞邑西路北站,116.6847307,39.93835603,8.22
潞苑东路路口北,116.6786185,39.93338789,13.78
吕家湾村委会,116.8882721,39.77100512,1.56
吕家湾村西口,116.877081,39.77186593,1.56
旅游新村小区1,116.6367951,39.90107134,17.67
旅游新村小区2,116.6367883,39.90103067,17.11
绿心公园南门,116.7130337,39.86604501,3.78
绿心公园西门,116.7055237,39.87158865,2.67
绿荫小区1,116.7853431,39.7717295,21
绿荫小区2,116.7851916,39.77229833,26.56
绿荫小区3,116.7851826,39.77224931,25.44
马堤,116.8067127,39.76451191,1.56
马堤村1,116.8068291,39.76448377,1.56
马堤村2,116.806746,39.76449951,1.56
马堤村东,116.8189955,39.76278944,2.11
马坊村桥1,116.8308789,39.81288807,2.67
马坊村桥2,116.8309241,39.8127522,2.67
马驹桥六号桥,116.579036,39.75419525,1.56
马驹桥一号桥,116.5395444,39.74722426,3.22
马头,116.8226473,39.76247791,4.33
马头村1,116.8225857,39.76248427,4.33
马头村2,116.8225587,39.76249315,4.33
马务,116.7524293,39.767767,2.67
马务大队,116.7524353,39.76774594,2.67
马务三队1,116.7482417,39.77034653,2.11
马务三队2,116.7482286,39.77038852,2.11
马务一队1,116.7422811,39.768387,3.78
马务一队2,116.742331,39.76836604,3.78
马营村,116.6980452,39.84190224,4.33
马庄,116.5512098,39.80635694,2.67
麦庄村东口,116.6091742,39.80234041,2.11
麦庄村西口,116.6018872,39.80217606,1
觅子店路口1,116.8758706,39.71893505,2.11
觅子店路口2,116.874653,39.72012921,2.67
面包厂,116.7505408,39.82620825,1.56
民族家园中路南口,116.5772324,39.92431968,6.56
南大化,116.6947451,39.78554363,3.22
南大化村1,116.6806763,39.78545885,2.67
南大化村2,116.6806696,39.78545837,2.67
南堤村路口南,116.5666929,39.76765065,1
南高庄村,116.7997502,39.74185984,8.22
南高庄村南口,116.8022823,39.739925,4.89
南火垡村1,116.6501263,39.79645612,1.56
南火垡村2,116.6501212,39.79647109,1.56
南火垡村南,116.6552465,39.79137909,2.67
南刘村,116.7602118,39.88194923,2.67
南马庄村,116.7423823,39.98736567,3.22
南马庄村南,116.7426109,39.98396662,1
南三间房村,116.7459719,39.68052818,1.56
南小营,116.6098966,39.75774361,1.56
南小庄村东,116.8762955,39.78406878,1.56
南阳村路口,116.7787999,39.79320648,3.22
内军庄,116.6974762,40.00134804,1
内军庄东口,116.7190567,40.00265583,2.11
牛堡屯,116.6837834,39.75994135,19.33
牛堡屯北站1,116.6834947,39.7638182,21
牛堡屯北站2,116.6834936,39.76387614,21.56
牛堡屯南站3,116.6846225,39.75608106,7.11
牛堡屯南站4,116.6845657,39.75616513,8.22
牛堡屯卫生院,116.6950218,39.76517062,1.56
牛堡屯中街,116.6868092,39.7611226,13.22
牛坊路口,116.6092639,39.73934358,2.67
牛镇新苑西门,116.8843215,39.62391571,1
牌楼营村1,116.6967076,39.83160097,8.78
牌楼营村2,116.6966857,39.83126402,8.78
牌楼营村3,116.6966867,39.83125502,8.78
牌楼营村4,116.6966787,39.83126056,8.78
牌楼营村5,116.6966718,39.83126105,8.78
平家疃,116.7227105,40.00963007,3.22
平家疃路口,116.7233657,39.9868376,2.11
平家疃路口西,116.7213123,39.98670658,1
平家疃南口,116.7258787,40.00607992,4.33
铺头村,116.6257575,39.85529478,1.56
铺头村路口,116.6198619,39.85879272,2.11
七级村,116.7533843,39.88404083,1.56
齐善庄1,116.6960094,39.82678785,10.44
齐善庄2,116.6960233,39.82680786,10.44
齐善庄3,116.6959895,39.82663288,8.78
齐善庄4,116.6960203,39.82678466,10.44
齐善庄5,116.6960184,39.8267848,10.44
齐善庄南1,116.6950864,39.81827745,3.78
齐善庄南2,116.6950795,39.81827724,3.78
齐善庄南站1,116.6950704,39.81874822,4.89
齐善庄南站2,116.6950595,39.81845027,3.78
齐善庄南站3,116.6950884,39.81831824,3.78
旗舰凯旋小区,116.6379874,39.87715554,8.78
前东仪村,116.8933975,39.81907373,1.56
前夏邢各庄1,116.7283354,39.93491738,7.11
前夏邢各庄2,116.7283353,39.93493632,7.11
前夏邢各庄3,116.728333,39.93499952,7.67
前夏邢各庄4,116.7283393,39.93496834,7.11
前堰上村,116.632382,39.76789166,3.22
前营村,116.6301258,39.84466804,7.67
前榆村,116.7813245,39.87507358,7.67
乔庄1,116.6823327,39.89099306,14.33
乔庄2,116.6817524,39.89117964,17.11
乔庄3,116.6823925,39.89099204,13.78
乔庄北街,116.6745953,39.89430213,29.33
青山1,116.7241401,39.76808912,1.56
青山2,116.7242347,39.769154,3.22
青山路口,116.7244776,39.76766614,1
渠头,116.7220291,39.68021837,5.44
群芳南街1,116.6776867,39.86191909,4.33
群芳南街2,116.6776804,39.86192248,4.33
群芳南街3,116.6776804,39.86183548,4.33
群芳园1,116.6575733,39.87077424,36.56
群芳园2,116.6577746,39.87109006,43.78
群芳园3,116.6576129,39.87084715,37.67
群芳园4,116.6575782,39.8707532,37.11
人民医院通州院区,116.7622274,39.77299438,1.56
任辛庄村,116.8223671,39.81044078,3.22
日光清城1,116.6395701,39.89325542,16.56
日光清城2,116.6396023,39.89324904,17.11
日光清城3,116.6395362,39.89327745,15.44
日新路北口,116.6449272,39.87398287,4.89
日新路南口1,116.6448615,39.85093264,1.56
日新路南口2,116.6447618,39.85100367,1.56
融科钧廷,116.5308599,39.74165219,4.89
融商三路北口,116.5758046,39.76766591,1
融商四路,116.5722083,39.7658326,1
瑞都国际公园,116.6749356,39.86359296,24.33
瑞都国际小区1,116.6749086,39.86368006,26
瑞都国际小区2,116.6749157,39.86365596,24.89
润枫领尚小区,116.5510943,39.82557389,5.44
三黄庄村路口,116.787904,39.76367195,3.22
三间房1,116.695538,39.80765402,12.67
三间房2,116.6955251,39.80765493,12.67
三间房东路北口,116.5772918,39.92206895,16
三元村1,116.6889166,39.91506391,10.44
三元村2,116.6884071,39.91506232,17.11
三元村3,116.6889395,39.91509882,9.89
三元村4,116.6884061,39.91505734,17.11
三元村5,116.6888747,39.91508677,11.56
三元村南1,116.6866629,39.91202995,1.56
三元村南2,116.6864355,39.91220417,3.78
三元村南3,116.6940136,39.9061505,1.56
沙古堆村,116.785841,39.81426241,3.78
沙古堆小学,116.7903191,39.8142859,3.22
上店超市,116.7502559,39.83691309,3.22
上店村,116.7544607,39.84729867,2.11
上店村北口1,116.7492534,39.85003218,1.56
上店村北口2,116.74945,39.84990526,1.56
上店村北口3,116.749453,39.8499043,1.56
上店村北口4,116.749494,39.84989631,1.56
上店村路口1,116.7544187,39.84731967,2.11
上店村路口2,116.7543551,39.8473576,2.11
上店村路口3,116.7544377,39.84732862,2.11
上店村路口4,116.7543936,39.84735058,2.11
上店中街,116.7500676,39.83950967,2.11
上马头,116.7078382,39.87419354,3.22
上坡村东,116.8766116,39.77830177,1.56
神驹村,116.6536442,39.69570291,2.11
神驹村北口(北行),116.6535812,39.70304979,2.11
神驹村北口(西行),116.6542073,39.70316717,2.67
神仙村,116.7315224,39.7226408,4.89
神仙村路口,116.7236334,39.72173043,1.56
沈庄村路口,116.7941985,39.74790736,1.56
史村,116.5842857,39.73929825,21
史东仪村,116.9012208,39.8185121,1.56
首创国际半岛,116.8301548,39.63888152,1
双埠头道口,116.6666785,39.96919118,1.56
水仙西路1,116.6915775,39.90664533,12.67
水仙西路2,116.6918397,39.90633413,12.67
宋庄1,116.7242254,39.94292331,37.11
宋庄2,116.7242608,39.94285079,35.44
宋庄3,116.7241905,39.94294225,37.11
宋庄4,116.7241855,39.94293022,36.56
宋庄5,116.7241982,39.94293824,37.11
宋庄6,116.7242055,39.9429473,37.11
宋庄美术馆1,116.7092777,39.96245117,12.67
宋庄美术馆2,116.7093517,39.9624774,12.67
宋庄市场,116.7279964,39.9447488,26.56
宋庄镇辛店村,116.7330381,39.95857697,2.67
苏坨新村,116.6786373,39.93888655,2.67
苏庄村1,116.7760607,39.79963681,2.67
苏庄村2,116.7760475,39.79969519,2.67
苏庄村3,116.7760336,39.79966877,2.67
苏庄村4,116.7760787,39.7996099,2.67
台湖村东口,116.6418166,39.83187538,4.33
台湖东口,116.6396767,39.83628273,6.56
台湖法院,116.5625647,39.82553481,2.67
台湖图书城,116.6164884,39.83345493,7.11
台湖图书城南,116.6157671,39.82848347,3.22
台湖卫生院西(临时站),116.6418284,39.83418641,2.67
台湖舞美艺术中心(临时站),116.6248777,39.83669545,2.11
台湖西口,116.6280132,39.83670666,1.56
台湖印象,116.6389615,39.83905475,2.67
台湖镇,116.6417928,39.83185143,4.33
台湖中学,116.6310594,39.83901111,2.11
台头新苑,116.8464008,39.63486996,1
太玉园,116.6957903,39.85286386,23.78
太玉园北口1,116.6943249,39.85584775,19.33
太玉园北口2,116.6943738,39.8558617,18.78
太玉园北口3,116.6945263,39.85578662,19.33
太玉园北口4,116.6943567,39.85591668,18.22
太玉园北口5,116.6943917,39.85583968,18.22
太玉园北口6,116.6943697,39.8558698,18.78
太玉园北口7,116.6943697,39.85586973,18.78
太玉园小区1,116.6956148,39.85294602,23.22
太玉园小区2,116.6956817,39.85287501,24.33
太玉园小区3,116.6956697,39.85291503,23.22
太玉园小区4,116.6956527,39.85297202,23.22
太玉园小区5,116.6956347,39.85298124,24.33
太玉园小区6,116.6956378,39.85298193,23.78
太玉园总站,116.6928208,39.85230811,7.67
天赐良园,116.6332644,39.92521213,25.44
田家府村1,116.6519472,39.85103978,1
田家府村2,116.6519302,39.85102879,1
田家府村3,116.651919,39.85111644,1
通惠北路北口1,116.6367109,39.91437206,17.11
通惠北路北口2,116.6367106,39.91427163,17.67
通惠北路北口3,116.6367111,39.91434688,17.11
通惠北路南口1,116.6368129,39.91174713,39.89
通惠北路南口2,116.6368131,39.91172997,39.33
通惠北路南口3,116.6368133,39.91178697,40.44
通科药厂1,116.7240832,39.7850402,1
通科药厂2,116.7240612,39.7851352,1
通顺路路口,116.6555735,39.95596755,1.56
通州半壁店,116.6292217,39.88042779,11.56
通州半壁店1,116.6293574,39.88043777,12.11
通州半壁店2,116.6293444,39.88050379,11.56
通州半壁店3,116.6293461,39.88157872,8.22
通州半壁店4,116.6293771,39.88154563,6.56
通州半壁店新村1,116.6293499,39.87770787,11.56
通州半壁店新村2,116.6293398,39.87770593,12.11
通州半壁店新村3,116.6292451,39.87796001,12.11
通州北关(临时站),116.6496355,39.9210979,4.89
通州北关桥南,116.6496208,39.92110109,4.89
通州北苑路口东(临时站),116.6339244,39.9056269,25.44
通州北苑路口东1,116.6319771,39.90541565,18.78
通州北苑路口东10,116.6336207,39.90559759,28.22
通州北苑路口东2,116.6320174,39.90542559,19.33
通州北苑路口东3,116.6319743,39.90540195,18.78
通州北苑路口东4,116.6335573,39.905595,26
通州北苑路口东5,116.632478,39.90556676,22.11
通州北苑路口东6,116.6336789,39.90558511,28.78
通州北苑路口东7,116.6320321,39.90542406,19.33
通州北苑路口东8,116.6319393,39.90542203,18.22
通州北苑路口东9,116.633617,39.90559511,28.22
通州北苑路口南1,116.6315457,39.90361439,53.22
通州北苑路口南2,116.6315317,39.90366323,52.67
通州北苑路口南3,116.6315058,39.90368386,48.78
通州北苑路口南4,116.6312249,39.90412561,31.56
通州北苑路口西1,116.6276766,39.90552796,17.11
通州北苑路口西2,116.6277685,39.90551762,18.22
通州北苑路口西3,116.6279373,39.90549965,18.78
通州车站路口西1,116.6554888,39.89944208,12.11
通州车站路口西2,116.6555,39.89944194,12.11
通州车站路口西3,116.6554757,39.89942328,12.11
通州崔各庄,116.6968646,39.69383719,2.11
通州第二医院1,116.5398767,39.75384626,51
通州第二医院2,116.5398667,39.75367923,46.56
通州第二医院3,116.5398667,39.75367902,46.56
通州第一职业学校,116.7342175,39.96524176,4.33
通州靛庄1,116.7723867,39.80808867,2.11
通州靛庄2,116.7723739,39.80812758,2.11
通州靛庄3,116.7723969,39.80806562,2.11
通州靛庄村,116.7723739,39.80806759,2.11
通州东关,116.6712218,39.90809787,1.56
通州东关西1,116.6684791,39.90775926,9.33
通州东关西2,116.6683176,39.90776544,8.78
通州东关西3,116.6678151,39.90767691,4.89
通州东关西4,116.6682847,39.90777848,8.78
通州风港基地,116.7913234,39.77687404,6
通州凤港基地1,116.7913008,39.77686769,6
通州凤港基地2,116.7913189,39.77689074,6
通州妇幼保健院,116.6772969,39.88492836,17.67
通州古城村1,116.7133286,39.91534703,1
通州古城村2,116.7118148,39.91558442,2.11
通州古城村3,116.7133046,39.91535499,1
通州古城村4,116.713468,39.91534775,1
通州马坊村1,116.8277316,39.82479947,3.22
通州马坊村2,116.8276816,39.82485039,3.22
通州南关西1,116.6603325,39.89918372,13.22
通州南关西2,116.660228,39.89918569,14.33
通州南关西3,116.6602906,39.89916176,14.33
通州区中医医院,116.6397382,39.88454791,15.44
通州三间房1,116.6954484,39.807097,17.11
通州三间房2,116.6955471,39.8075819,13.22
通州三间房3,116.6678731,39.88521227,4.33
通州三间房村,116.6955271,39.8076029,12.67
通州三间房西,116.6678461,39.88521133,4.33
通州石槽村1,116.83756,39.75405596,4.33
通州石槽村2,116.8374315,39.7541401,3.78
通州石槽村3,116.8374608,39.75414065,3.78
通州石槽村北1,116.8309185,39.75848997,2.11
通州石槽村北2,116.8309455,39.75846494,2.11
通州田村,116.7810676,39.75164157,3.22
通州佟麟阁大街1,116.6519207,39.90449913,15.44
通州佟麟阁大街2,116.6519036,39.90452834,15.44
通州佟麟阁大街3,116.6519037,39.90451042,15.44
通州佟麟阁大街4,116.6519047,39.9044591,14.89
通州佟麟阁大街5,116.6521572,39.90330592,27.67
通州西门路口北1,116.6375955,39.90724395,31.56
通州西门路口北2,116.6375559,39.90724259,31
通州西门路口北3,116.6375852,39.90728484,31.56
通州西门路口北4,116.6375302,39.90730175,30.44
通州西门路口北5,116.6373466,39.90766688,21
通州西门路口北6,116.637587,39.90725578,31
通州西门路口东1,116.6387793,39.90613332,42.11
通州西门路口东2,116.6390782,39.90616592,41.56
通州西门路口东3,116.6409528,39.90642469,16
通州西门路口东4,116.6390961,39.90615885,41
通州西门路口东5,116.6389864,39.90614993,41
通州西门路口东6,116.640873,39.90642474,17.67
通州西门路口东7,116.6394256,39.90619724,39.33
通州西门路口南1,116.6379494,39.90443548,98.78
通州西门路口南2,116.6380514,39.90430481,92.67
通州西门路口南3,116.6379396,39.9043578,101
通州小海子,116.7218457,39.67284763,3.22
通州小街南口1,116.6748674,39.87157748,5.44
通州小街南口2,116.6748824,39.8715774,5.44
通州小街南口3,116.6748754,39.87164544,6
通州小街桥东1,116.6701278,39.87686206,4.33
通州小街桥东10,116.6701763,39.8768236,5.44
通州小街桥东11,116.6701942,39.87684061,5.44
通州小街桥东12,116.6701633,39.87683863,5.44
通州小街桥东13,116.6701225,39.87685466,4.33
通州小街桥东14,116.6701631,39.87682784,4.89
通州小街桥东15,116.6701674,39.87681261,4.89
通州小街桥东2,116.6701134,39.87686872,4.33
通州小街桥东3,116.6700766,39.87689671,4.89
通州小街桥东4,116.6700995,39.87687987,4.33
通州小街桥东5,116.6702251,39.87679456,5.44
通州小街桥东6,116.6701055,39.8768807,4.33
通州小街桥东7,116.6701324,39.87685769,4.33
通州小街桥东8,116.6701484,39.87683166,4.89
通州小街桥东9,116.6685771,39.87829004,6.56
通州小辛庄村,116.8106913,39.81078325,2.11
通州杨庄,116.626115,39.89814172,28.78
通州杨庄北口,116.6259881,39.90432832,19.33
通州杨庄南口,116.6261796,39.89338398,7.67
佟麟阁大街,116.6519038,39.90449507,15.44
土桥村1,116.6847592,39.86971242,4.33
土桥村10,116.6845818,39.86976552,4.33
土桥村11,116.6847164,39.86972748,4.33
土桥村2,116.6847652,39.86968542,4.33
土桥村3,116.6847243,39.86971647,4.33
土桥村4,116.6847552,39.86971879,4.33
土桥村5,116.6848639,39.8696953,4.33
土桥村6,116.6849995,39.86964625,4.33
土桥村7,116.6847074,39.86972444,4.33
土桥村8,116.6829615,39.870296,4.33
土桥村9,116.6847124,39.86969938,4.33
土桥欣村1,116.6931481,39.86741573,16.56
土桥欣村2,116.6931082,39.86741182,16.56
土桥欣村3,116.6930775,39.8674333,17.11
土桥欣村4,116.6931421,39.86741774,16.56
土桥欣村5,116.6931421,39.86741774,16.56
土桥欣村6,116.6930833,39.86742582,17.11
土桥欣村7,116.6930654,39.86742583,17.11
土桥欣村8,116.69319,39.86741273,17.11
土桥新桥东1,116.7026908,39.86493472,3.22
土桥新桥东2,116.7027707,39.86489266,3.78
土桥新桥东3,116.7028008,39.86490566,3.22
土桥新桥东4,116.7027398,39.86491968,3.22
土桥新桥东5,116.7027687,39.86490166,3.22
土桥新桥东6,116.7027088,39.8649217,3.78
土桥新桥东7,116.702651,39.86492478,3.78
土桥新桥东8,116.7028216,39.86489368,3.22
团瓢庄工业区,116.6009516,39.7575055,1.56
团瓢庄南口,116.6052375,39.75763687,2.67
疃里,116.6927467,39.94663821,1.56
疃里二区,116.690513,39.95216934,2.67
疃里公交场站,116.6956728,39.95564124,2.11
疃里新村,116.6866123,39.94235015,19.33
疃里一区,116.6883532,39.94788937,8.22
疃里一区南门,116.6896152,39.94205279,2.11
坨堤1,116.6865563,39.77028277,2.67
坨堤2,116.6862653,39.76997203,1.56
坨堤村,116.6638507,39.77177305,6
外交部培训中心,116.7324586,39.8366732,1.56
外郎营村,116.6168288,39.82406971,2.11
外郎营东口,116.6316624,39.82482205,3.22
万盛北街1,116.6364484,39.87285581,4.33
万盛北街2,116.6377259,39.87280403,4.33
万盛南街南口,116.6233837,39.86192089,1.56
万盛中一街,116.6423304,39.87071405,8.22
王楼村,116.7459485,39.7995486,1.56
王庄耿楼村,116.8348927,39.78363545,4.89
王庄耿楼村(临时站),116.83487,39.78175061,1
望君疃村1,116.850742,39.81364733,2.67
望君疃村2,116.850779,39.81375248,2.67
温馨家园,116.5453243,39.73694239,3.22
温馨家园小区,116.5409395,39.74000811,2.67
吴各庄村,116.6187722,40.01809855,9.33
吴营村,116.7590168,39.80346678,9.89
武辛庄村1,116.8626972,39.81371873,2.67
武辛庄村2,116.8632838,39.8138027,2.67
武兴路口1,116.7446231,39.85363177,1
武兴路口2,116.7446584,39.85255089,1.56
武兴路口3,116.7445599,39.85260772,1
武兴路口4,116.7445484,39.85260086,1
武兴路口5,116.7446414,39.85255392,1.56
武兴路口6,116.7444035,39.85270569,1
武窑村1,116.7644505,39.84219599,1
武窑村2,116.7644837,39.84219902,1
武窑村3,116.7645346,39.84213519,1
武窑村4,116.7644686,39.84220211,1
武窑村5,116.7643335,39.84230189,1
武窑村北,116.7700174,39.85361375,1
武夷花园1,116.6945692,39.91637346,13.22
武夷花园2,116.6923525,39.91610011,9.33
武夷花园3,116.6944894,39.91636453,14.33
武夷花园4,116.6922976,39.91607816,9.33
武夷花园5,116.6945118,39.91636935,14.33
西大街路口东1,116.6546029,39.90746554,21.56
西大街路口东2,116.6550106,39.90748717,13.22
西大街路口东3,116.6536558,39.90735039,43.22
西大街路口东4,116.6548521,39.90748731,15.44
西大街路口东5,116.6537054,39.9073491,39.89
西大街路口西1,116.6468454,39.90685013,9.89
西大街路口西2,116.6469962,39.90685208,10.44
西大街路口西3,116.6496233,39.90713083,10.44
西大街路口西4,116.6495783,39.90705291,11.56
西大街路口西5,116.6494278,39.90704508,9.89
西大街路口西6,116.6493859,39.90713815,8.22
西大街路口西7,116.6496666,39.90706265,12.11
西定安村,116.8288296,39.72514212,1.56
西定福庄客运站,116.73721,39.83605534,1.56
西垡村,116.6968995,39.6868233,6
西河村,116.8007947,39.67421147,1.56
西黄垡村,116.8119459,39.73225112,1.56
西集1,116.8716649,39.81232859,2.67
西集2,116.8724305,39.81206364,4.33
西集村东口,116.8819282,39.81720213,2.67
西集镇,116.8765974,39.81639355,10.44
西集镇西口,116.8730851,39.81564223,5.44
西集中学南,116.8727641,39.81459196,9.89
西军庄,116.6059777,39.91203289,3.22
西潞苑小区1,116.651877,39.93600332,12.67
西潞苑小区2,116.6518663,39.93599344,12.67
西潞苑小区3,116.6518921,39.93594619,12.67
西潞苑小区4,116.6518841,39.93595512,12.67
西潞苑小区5,116.6518741,39.93600422,12.67
西马庄,116.6246225,39.91475507,3.78
西上园1,116.6726212,39.89956429,24.89
西上园2,116.6725227,39.89951686,25.44
西上园小区西门,116.6704576,39.90315959,17.67
西太平庄村,116.5931285,39.80193324,1.56
西田阳,116.6036437,39.73896849,22.67
西小马1,116.6409517,39.87947842,3.22
西小马2,116.6412318,39.87958521,3.78
西永和屯村,116.7150724,39.76679386,2.11
西赵,116.7488037,40.00436679,2.67
西庄村,116.7694325,39.71342811,4.89
祥和乐园,116.6976917,39.83875271,28.78
祥和乐园小区1,116.6975721,39.83854382,29.89
祥和乐园小区2,116.697593,39.83864884,26
祥和乐园小区3,116.6975919,39.83870873,26
祥和乐园小区4,116.697602,39.83870776,26
小堡北街1,116.7135589,39.95384662,13.78
小堡北街2,116.7135359,39.95384462,13.78
小堡北街3,116.71354,39.95385976,13.78
小堡北街4,116.7135369,39.95385561,14.33
小堡东口1,116.7193974,39.94128436,12.67
小堡东口2,116.7192078,39.94114534,13.22
小堡东口3,116.7193574,39.94131036,12.67
小堡环岛1,116.7121245,39.95876959,14.33
小堡环岛2,116.7121411,39.95879772,14.33
小堡环岛北1,116.7120883,39.95831175,16
小堡环岛北2,116.7120834,39.95797181,19.33
小堡路口北,116.7124183,39.98619696,2.11
小堡南街1,116.7173978,39.94413342,26
小堡南街2,116.7173848,39.94412443,26.56
小堡南街3,116.7174032,39.94409277,27.11
小堡南街4,116.7174108,39.94409041,27.67
小堡南口,116.7189395,39.93998148,2.11
小堡商业广场1,116.7158102,39.94804945,34.89
小堡商业广场2,116.7157793,39.94809238,37.11
小堡商业广场3,116.7158265,39.94808975,36.56
小堡商业广场4,116.7158172,39.94809148,36.56
小堡西口,116.7141542,39.9397714,3.22
小堡艺术东区1,116.7124677,39.96208946,9.33
小堡艺术东区2,116.7124597,39.96218843,11
小堡艺术东区3,116.7124746,39.96215574,11
小堡艺术东区4,116.7124418,39.96217835,11
小北关1,116.7241382,39.77887286,1
小北关2,116.7241433,39.77825096,1.56
小东各庄村1,116.8223611,39.83816535,1.56
小东各庄村2,116.8224513,39.83793257,1.56
小豆各庄村,116.7818729,39.85371019,2.11
小杜社村,116.6575591,39.75314611,4.33
小杜社村西口,116.6463305,39.75639961,2.67
小甘棠村,116.7763853,39.85367579,3.78
小稿村1,116.634975,39.87481248,3.22
小稿村2,116.6424915,39.8727798,11
小稿村南站,116.6448131,39.87134817,6.56
小耕垡1,116.6906875,39.74456829,1.56
小耕垡2,116.6906936,39.74452044,1.56
小潞邑1,116.6837096,39.92983989,21.56
小潞邑2,116.6835927,39.92982457,22.67
小潞邑3,116.6827203,39.92975842,25.44
小潞邑北站1,116.6858646,39.93142345,10.44
小潞邑北站2,116.6855783,39.93240566,13.22
小潞邑村,116.6867603,39.93043192,13.22
小庞村,116.6956584,39.99052716,2.11
小松垡村,116.6491942,39.73079648,2.67
小松垡村北口,116.6488646,39.73390141,1.56
小务村路口,116.8145823,39.6760872,19.89
小杨庄桥,116.743149,39.97203128,1.56
小营村,116.6902484,39.99813546,1.56
小营村北口,116.6898874,40.00051648,7.67
小周易村,116.5747878,39.73801683,3.22
小周易村西,116.5619106,39.73710011,3.78
谢家楼村1,116.8242751,39.83361535,3.22
谢家楼村2,116.8243825,39.83305866,3.78
谢家楼村南1,116.82556,39.82977077,2.67
谢家楼村南2,116.8256432,39.829475,2.11
辛安屯村1,116.7125404,39.90895665,1.56
辛安屯村2,116.7125634,39.90893064,1.56
辛店村北,116.7347532,39.9633468,3.22
辛店银行,116.7364873,39.9604015,3.22
新潮嘉园,116.6912864,39.93201422,7.67
新城职业学校,116.6341108,39.83653104,2.67
新河村路口1,116.6456666,39.79098622,2.11
新河村路口2,116.6456506,39.79098131,2.11
新华大街1,116.6598146,39.90760969,12.11
新华大街2,116.6596711,39.90760076,11.56
新华大街3,116.6597717,39.90751067,12.11
新华大街4,116.6595942,39.90759682,11
新华大街5,116.6597412,39.90750143,12.67
新华联会议中心,116.6210067,39.83305775,6.56
新华联家园1,116.6350388,39.89146733,33.22
新华联家园2,116.6350497,39.89156924,31.56
新华联家园西门,116.6293907,39.88885314,27.11
新华联锦园,116.6260615,39.90124951,29.89
新通联合驾校,116.7641271,39.68028902,1.56
鑫隅三街,116.8662172,39.71958738,3.22
鑫隅三街东,116.8710533,39.71990742,3.22
星悦国际,116.5775138,39.76149252,6.56
邢各庄,116.7283334,39.93491828,7.11
兴光二街,116.5534072,39.8255183,3.22
兴光三街东口,116.5630728,39.82236625,2.67
兴惠艺术园区1,116.7132198,39.96931177,8.22
兴惠艺术园区2,116.7132058,39.9691408,8.78
兴贸二街,116.5761598,39.76385378,1
兴贸一街,116.5688553,39.76473209,1
兴武林村北口1,116.6518438,39.80938838,3.22
兴武林村北口2,116.6518578,39.80934238,3.22
兴武林村南口1,116.6516111,39.80630587,3.78
兴武林村南口2,116.6516479,39.80631581,3.78
幸福艺居小区,116.6811455,39.88764816,19.89
徐官屯村,116.8449867,39.72777995,3.78
徐官屯村路口,116.8421806,39.7273579,2.11
徐宋路,116.7127126,39.97633548,2.11
徐辛庄敬老院,116.6958283,39.98842716,3.22
徐辛庄路口,116.672952,39.98520833,13.78
徐辛庄市场,116.6851073,39.98516207,23.22
徐辛庄卫生院,116.6960182,39.9857872,9.89
徐辛庄邮局,116.691215,39.98522355,7.11
许各庄村,116.7688029,39.7976825,1
堰上村路口,116.6453253,39.76886697,1.56
杨堤,116.7979139,39.76939245,5.44
杨堤村1,116.7980992,39.76923374,5.44
杨堤村2,116.7979229,39.76940627,5.44
杨家洼1,116.6595993,39.8855673,22.67
杨家洼10,116.6595043,39.88564454,21
杨家洼11,116.6596351,39.88554118,22.67
杨家洼12,116.6595863,39.88557735,22.67
杨家洼13,116.6593928,39.88570651,19.33
杨家洼14,116.659689,39.8855012,22.67
杨家洼15,116.6595943,39.88556931,22.67
杨家洼16,116.6596242,39.88553932,22.67
杨家洼17,116.6595344,39.88562431,21
杨家洼2,116.6596297,39.88554859,22.67
杨家洼3,116.6596521,39.88552829,22.67
杨家洼4,116.6596252,39.8855533,22.67
杨家洼5,116.6594845,39.88566553,20.44
杨家洼6,116.6595644,39.8855793,22.67
杨家洼7,116.6596003,39.88556626,22.67
杨家洼8,116.6596212,39.88555732,22.67
杨家洼9,116.660356,39.88509965,22.67
杨家洼路口北1,116.6636824,39.88530542,16.56
杨家洼路口北2,116.6637491,39.88528535,16.56
杨家洼路口南1,116.6608489,39.88218935,89.33
杨家洼路口南2,116.6610951,39.88265806,99.89
杨家洼路口南3,116.6608238,39.88207914,84.89
杨家洼路口南4,116.660812,39.88203133,83.22
杨闸环岛东,116.5956854,39.91109931,2.67
杨闸环岛西,116.5911026,39.91058577,21.56
养殖场,116.7118369,39.83751382,2.11
样本小区1,116.539545,39.74728001,3.22
样本小区2,116.5395451,39.74733485,3.22
样田村1,116.6455246,39.78770879,2.11
样田村2,116.6455046,39.78769474,2.11
样田村3,116.6455205,39.78805074,1.56
姚辛庄1,116.6289696,39.75641631,1
姚辛庄2,116.7642308,39.82346525,1.56
姚辛庄北口,116.7741244,39.82276858,4.33
姚辛庄村1,116.7729291,39.81964947,1.56
姚辛庄村2,116.7729021,39.81955744,1.56
姚辛庄村3,116.7729381,39.81966146,1.56
姚辛庄村4,116.7729331,39.81965841,1.56
姚辛庄村北口1,116.7741043,39.82273226,4.33
姚辛庄村北口2,116.7741253,39.82279629,3.78
姚辛庄村北口3,116.7741513,39.82282528,3.78
姚辛庄村北口4,116.7741333,39.82278328,4.33
姚辛庄村西(临时站),116.7613554,39.82349222,1
姚辛庄东口,116.6330458,39.75991288,1.56
姚辛庄南口,116.7729211,39.8195885,1.56
窑上村1,116.6516117,39.80286319,1.56
窑上村2,116.6516196,39.80288716,1.56
怡芳园,116.5784582,39.80175293,32.67
怡乐南街公交场站1,116.6350427,39.88102504,4.33
怡乐南街公交场站2,116.6352419,39.88103303,4.33
怡乐南街公交场站3,116.6339225,39.88104371,2.11
怡乐南街公交场站4,116.6339346,39.88103457,2.11
怡乐中街1,116.6367976,39.8829339,5.44
怡乐中街2,116.6368045,39.88304786,5.44
怡乐中路北口1,116.6293854,39.89081308,16.56
怡乐中路北口2,116.6293984,39.89077302,18.78
怡乐中路北口3,116.6293984,39.89072299,19.89
尹各庄村,116.6505709,39.98362517,8.22
尹各庄村东口,116.6514803,39.97735091,2.11
尹各庄村委会,116.6511303,39.97969128,3.78
尹家河村,116.9160374,39.81848195,1.56
应寺检查站,116.7205075,39.6384733,1
永昌南路南站1,116.5312041,39.76947934,18.22
永昌南路南站2,116.5310803,39.76954232,16.56
永昌南路南站3,116.5311606,39.76945298,17.67
永乐店1,116.7839089,39.70840501,12.11
永乐店2,116.7813116,39.70872471,32.11
永乐店3,116.7842032,39.70837161,12.11
永乐店卫生院,116.786726,39.70802987,4.33
永乐店卫生院(临时站),116.7873827,39.70795826,3.22
永乐店西口,116.7750317,39.7112892,13.22
永乐店镇粮库,116.7789938,39.67478994,7.67
永乐店中学,116.7830791,39.71485515,2.11
永顺村委会,116.6447529,39.91368134,6.56
于家务,116.6970088,39.71443294,5.44
于家务村东口,116.7062491,39.71927763,15.44
于家务村西口,116.6971154,39.72183181,1.56
于家务西口,116.6971203,39.72181183,1.56
于家务一桥,116.6961377,39.7352166,1.56
榆林庄,116.7836027,39.78536468,3.78
榆林庄村1,116.7836517,39.78528079,3.22
榆林庄村2,116.7836045,39.78535498,3.78
榆林庄村3,116.7836907,39.7852878,3.22
榆林庄村4,116.7835775,39.78538181,3.78
榆林庄村北1,116.7796433,39.79094593,1.56
榆林庄村北2,116.7796441,39.79094739,1.56
榆林庄村北3,116.779626,39.79093225,1.56
玉带河东街路口南,116.6851364,39.90076702,8.22
玉带河西街西口,116.6339618,39.90148226,8.78
玉甫上营1,116.6518757,39.83270726,9.33
玉甫上营2,116.6518767,39.83268427,9.33
玉甫上营3,116.6518766,39.83268344,9.33
玉甫上营南口1,116.6519218,39.82537788,1.56
玉甫上营南口2,116.6519118,39.82536286,1.56
玉江佳园,116.574509,39.80171308,35.44
玉桥北里,116.6783954,39.89362734,16
玉桥东里1,116.6828866,39.88487317,7.11
玉桥东里2,116.6828392,39.88493901,7.67
玉桥东里南门,116.6859902,39.88381888,6
玉桥东路1,116.6797189,39.89007656,12.67
玉桥东路2,116.6795311,39.89040808,9.33
玉桥东路3,116.6796701,39.8901496,12.11
玉桥东路4,116.6795058,39.89043543,9.33
玉桥东路5,116.6794906,39.89047876,9.33
玉桥东一路北口(临时站),116.686274,39.8900307,4.89
玉桥小区,116.676406,39.89107358,9.33
玉桥中路1,116.6714191,39.89460202,38.22
玉桥中路2,116.6714101,39.89464617,36
玉桥中路北口1,116.6707725,39.89847622,20.44
玉桥中路北口2,116.6707944,39.89830553,24.89
月亮湾,116.7177442,39.83405379,7.11
月亮湾桥北,116.7191373,39.84084616,7.11
月亮湾小区,116.7177801,39.83419484,7.11
岳庄1,116.6505663,39.91347873,5.44
岳庄2,116.6508221,39.91270897,24.33
岳庄3,116.6507797,39.91288061,16
岳庄4,116.6505511,39.91341885,6.56
岳庄5,116.6505322,39.91353105,5.44
岳庄6,116.6508036,39.91286253,18.22
云景东路1,116.6602403,39.87966112,57.11
云景东路2,116.6605492,39.88034376,86
云景东路3,116.6602352,39.8796239,55.44
云景东路4,116.6602213,39.87957312,54.33
云景里1,116.6592062,39.87568236,44.33
云景里2,116.6596895,39.87666286,33.78
云景里3,116.659232,39.87573548,45.44
云景里4,116.6591913,39.87559338,45.44
运河明珠家园1,116.6815916,39.90054756,27.67
运河明珠家园2,116.6815962,39.90052915,28.78
运河森林公园西门,116.7314962,39.87900775,2.67
运河湾小区1,116.6891789,39.90370739,3.78
运河湾小区2,116.6891819,39.90370337,3.78
运河湾小区3,116.6893703,39.90388322,4.89
运河湾小区4,116.6892058,39.90370135,3.78
运河中学高中部,116.6191116,39.87481962,1.56
运乔嘉园1,116.6868132,39.89095918,5.44
运乔嘉园2,116.6852837,39.89114245,4.33
运乔嘉园3,116.6868331,39.89095916,6
运通医院,116.7159762,39.84881192,8.78
枣林村,116.7211851,39.65919716,1.56
枣林桥,116.7213105,39.66106386,1.56
枣林庄北口1,116.7215498,39.81253043,4.89
枣林庄北口2,116.7215278,39.81266349,4.89
枣林庄南口1,116.7233628,39.80592209,1.56
枣林庄南口2,116.7233408,39.80605911,1.56
枣林庄小学1,116.7223219,39.80978872,6
枣林庄小学2,116.722326,39.80965074,6.56
寨里村,116.648081,40.00083124,1.56
寨辛庄村,116.6471745,40.00683353,2.11
张凤路北口,116.7150278,39.86132523,5.44
张各庄,116.7977731,39.70664319,1.56
张各庄村,116.7978533,39.70662443,1.56
张家湾开发区1,116.7155547,39.86171503,4.89
张家湾开发区2,116.7155896,39.86169606,4.89
张家湾开发区3,116.7156315,39.86169619,4.89
张家湾开发区4,116.7155537,39.86170305,4.89
张家湾开发区5,116.7150338,39.8613732,4.89
张家湾开发区6,116.7155716,39.8617081,4.89
张家湾开发区7,116.7156116,39.86169806,4.89
张家湾小学,116.715733,39.85188575,22.67
张家湾镇1,116.6975251,39.84461637,7.11
张家湾镇2,116.6975919,39.84503229,10.44
张家湾镇3,116.6974852,39.84484536,7.11
张家湾镇4,116.6975201,39.84469337,7.67
张家湾镇5,116.697505,39.84476593,6.56
张家湾镇6,116.6975161,39.84476634,6.56
张家湾镇大辛庄,116.7183208,39.82454857,12.11
张家湾镇垡头1,116.7239748,39.7942563,1.56
张家湾镇垡头2,116.7240866,39.79411829,1.56
张家湾镇政府1,116.715295,39.85771645,8.22
张家湾镇政府2,116.7153019,39.85773846,8.22
张家湾中心小学,116.7157441,39.85190181,22.11
张梁路,116.7235315,39.85071932,17.67
张梁路路口东1,116.7300832,39.85079334,1.56
张梁路路口东2,116.73022,39.85081844,1.56
张梁路路口西,116.7165558,39.84921086,7.67
张辛庄村1,116.7270513,39.85891206,1.56
张辛庄村2,116.7270802,39.85890812,1.56
张辛庄村3,116.7268987,39.85893765,1.56
张辛庄村4,116.7269604,39.85892007,1.56
张辛庄村5,116.7270083,39.85892507,1.56
张辛庄村6,116.7268736,39.85892906,1.56
张辛庄村7,116.7263445,39.85850202,1.56
张辛庄村西1,116.7208415,39.86043753,2.67
张辛庄村西2,116.7214205,39.86028157,2.67
张辛庄村西3,116.7214342,39.86028669,2.67
张辛庄村西4,116.7214535,39.86027651,2.67
张辛庄村西5,116.7213816,39.8602986,2.67
张辛庄村西6,116.7214395,39.86029257,2.67
长陵营,116.7929322,39.77498664,5.44
召里1,116.7290733,39.92360921,1
召里2,116.7290753,39.92369621,1
召里3,116.7290793,39.9236236,1
召里4,116.7290883,39.92361011,1
召里村,116.7290854,39.92338321,1
召里南1,116.7294766,39.9187916,1.56
召里南2,116.7294795,39.91901375,1.56
召里南3,116.7294816,39.91893559,1.56
中辛庄1,116.7241172,39.79666703,1.56
中辛庄2,116.7241141,39.79656705,1.56
中辛庄村,116.7383365,39.79742727,2.11
周坡庄村委会,116.6132118,39.82303738,1.56
周起营,116.7592218,39.73404613,1.56
周营村北口,116.5513237,39.72884024,8.78
周营村南口,116.5515091,39.72149873,3.78
周营村中街,116.5514214,39.72532806,23.22
朱家垡村,116.6292923,39.84809516,2.11
珠江四季悦城,116.5765626,39.75653157,2.11
珠江逸景,116.5392215,39.73962783,18.22
珠江逸景小区,116.5393235,39.74130883,11
砖厂中路,116.6897842,39.87035614,44.33
紫峰九院城,116.7252676,39.68039655,13.22
地铁黄渠站,116.5709557,39.92399016,0
